[{"lng":0.28172,"Town":"Abbess End","Population":77433,"County":"Essex","lat":51.78},{"lng":-1.53633,"Town":"Abbotts Ann","Population":163437,"County":"Hampshire","lat":51.18981},{"lng":-0.52319,"Town":"Alfold","Population":122199,"County":"Surrey","lat":51.10047},{"lng":-2.71042,"Town":"Albyfield","Population":115933,"County":"Cumbria","lat":54.8652},{"lng":-6.27113,"Town":"Aghalee","Population":47490,"County":"Antrim","lat":54.52024},{"lng":-3.32396,"Town":"Abercynon","Population":40099,"County":"Rhondda Cynon Taff","lat":51.65082},{"lng":-1.34054,"Town":"Aberford","Population":140616,"County":"West Yorkshire","lat":53.83195},{"lng":-1.89114,"Town":"Alcester Lane's End","Population":46067,"County":"West Midlands","lat":52.42244},{"lng":-2.72504,"Town":"Ainstable","Population":64733,"County":"Cumbria","lat":54.81119},{"lng":-4.4635,"Town":"Aberffraw","Population":81448,"County":"Isle of Anglesey","lat":53.18808},{"lng":-1.29101,"Town":"Aldwark","Population":136485,"County":"North Yorkshire","lat":54.06535},{"lng":-4.53644,"Town":"Aberporth","Population":97823,"County":"Ceredigion","lat":52.13449},{"lng":-5.57252,"Town":"Achnamara","Population":109510,"County":"Argyll and Bute","lat":56.02857},{"lng":-2.81857,"Town":"Abraham Heights","Population":125665,"County":"Lancashire","lat":54.04668},{"lng":-1.31192,"Town":"Airedale","Population":159397,"County":"West Yorkshire","lat":53.72393},{"lng":-4.73314,"Town":"Aberchalder","Population":122312,"County":"Highland","lat":57.09263},{"lng":-0.46935,"Town":"Adversane","Population":89299,"County":"West Sussex","lat":51.00086},{"lng":-3.25663,"Town":"Alfington","Population":121024,"County":"Devon","lat":50.7793},{"lng":-1.15946,"Town":"Adgestone","Population":116131,"County":"Isle of Wight","lat":50.66614},{"lng":-6.20922,"Town":"Achtalean","Population":114787,"County":"Highland","lat":57.43839},{"lng":-2.33351,"Town":"Ackleton","Population":105287,"County":"Shropshire","lat":52.58384},{"lng":-3.85604,"Town":"Achrimsdale","Population":156336,"County":"Highland","lat":58.03409},{"lng":0.94743,"Town":"Aldington","Population":46913,"County":"Kent","lat":51.09062},{"lng":-0.19075,"Town":"Aldrington","Population":145834,"County":"East Sussex","lat":50.835},{"lng":-3.95959,"Town":"Abergynolwyn","Population":109150,"County":"Gwynedd","lat":52.64002},{"lng":-0.72208,"Town":"Adlingfleet","Population":59849,"County":"East Riding Of Yorkshire","lat":53.68314},{"lng":-1.28526,"Town":"Adwick upon Dearne","Population":113250,"County":"South Yorkshire","lat":53.50805},{"lng":-1.88723,"Town":"Addingham","Population":149614,"County":"West Yorkshire","lat":53.94156},{"lng":-1.93758,"Town":"Alderney","Population":52179,"County":"Dorset","lat":50.75008},{"lng":-0.93155,"Town":"Adstock","Population":53134,"County":"Buckinghamshire","lat":51.96813},{"lng":-0.70356,"Town":"Aldwick","Population":68254,"County":"West Sussex","lat":50.77887},{"lng":-5.12332,"Town":"Abercastle","Population":24409,"County":"Pembrokeshire","lat":51.9585},{"lng":-6.90591,"Town":"Ãƒ\u20acird Mhighe","Population":166388,"County":"Na h-Eileanan an Iar","lat":57.782},{"lng":-1.11113,"Town":"Acaster Malbis","Population":83998,"County":"North Yorkshire","lat":53.90237},{"lng":-3.27661,"Town":"Aberbechan","Population":117836,"County":"Powys","lat":52.53247},{"lng":-2.27772,"Town":"Affpuddle","Population":88266,"County":"Dorset","lat":50.74078},{"lng":-3.76432,"Town":"Aberhosan","Population":154773,"County":"Powys","lat":52.56217},{"lng":-0.68242,"Town":"Aislaby","Population":149920,"County":"North Yorkshire","lat":54.46469},{"lng":-0.86629,"Town":"Abington","Population":168678,"County":"Northamptonshire","lat":52.24623},{"lng":-1.13165,"Town":"Adstone","Population":169993,"County":"Northamptonshire","lat":52.15858},{"lng":1.30949,"Town":"Acol","Population":155351,"County":"Kent","lat":51.35978},{"lng":-0.0777,"Town":"Aldgate","Population":61051,"County":"Greater London (City of London)","lat":51.5132},{"lng":-2.1282,"Town":"Abbey Hulton","Population":46384,"County":"Staffordshire","lat":53.03371},{"lng":0.12106,"Town":"Aby","Population":153296,"County":"Lincolnshire","lat":53.28459},{"lng":-5.33196,"Town":"Achnacarnin","Population":81143,"County":"Highland","lat":58.23768},{"lng":-0.80268,"Town":"Acklam","Population":129302,"County":"North Yorkshire","lat":54.04351},{"lng":-3.06778,"Town":"Aber-oer","Population":154700,"County":"Wrexham","lat":53.03798},{"lng":-4.98181,"Town":"Albert Town","Population":29316,"County":"Pembrokeshire","lat":51.80029},{"lng":-3.89776,"Town":"Achiemore","Population":125734,"County":"Highland","lat":58.50062},{"lng":-3.47184,"Town":"Airntully","Population":107535,"County":"Perth and Kinross","lat":56.50283}]